{"displayFieldName":"","fieldAliases":{"OBJECTID":"OBJECTID","OBJECTID_1":"OBJECTID_1","Hospital_Name":"Hospital_Name","Address":"Address","City":"City","Province":"Province","Postal_Code":"Postal_Code","Phone":"Phone","Website":"Website","Latitude":"Latitude","Longitude":"Longitude"},"geometryType":"esriGeometryPoint","spatialReference":{"wkid":102100,"latestWkid":3857},"fields":[{"name":"OBJECTID","type":"esriFieldTypeOID","alias":"OBJECTID"},{"name":"OBJECTID_1","type":"esriFieldTypeDouble","alias":"OBJECTID_1"},{"name":"Hospital_Name","type":"esriFieldTypeString","alias":"Hospital_Name","length":2000000000},{"name":"Address","type":"esriFieldTypeString","alias":"Address","length":2000000000},{"name":"City","type":"esriFieldTypeString","alias":"City","length":2000000000},{"name":"Province","type":"esriFieldTypeString","alias":"Province","length":2000000000},{"name":"Postal_Code","type":"esriFieldTypeString","alias":"Postal_Code","length":2000000000},{"name":"Phone","type":"esriFieldTypeString","alias":"Phone","length":2000000000},{"name":"Website","type":"esriFieldTypeString","alias":"Website","length":2000000000},{"name":"Latitude","type":"esriFieldTypeDouble","alias":"Latitude"},{"name":"Longitude","type":"esriFieldTypeDouble","alias":"Longitude"}],"features":[{"attributes":{"OBJECTID":1,"OBJECTID_1":1,"Hospital_Name":"St. Boniface Hospital","Address":"409 Tach√© Avenue","City":"Winnipeg","Province":"MB","Postal_Code":"R2H 2A6","Phone":"204-233-8563","Website":"https://stbonifacehospital.ca","Latitude":49.883304500000001,"Longitude":-97.1246242},"geometry":{"x":-10811863.7094,"y":6426090.7096000016}},{"attributes":{"OBJECTID":2,"OBJECTID_1":2,"Hospital_Name":"Concordia Hospital","Address":"1095 Concordia Avenue","City":"Winnipeg","Province":"MB","Postal_Code":"R2K 3S8","Phone":"204-667-1560","Website":"https://concordiahospital.mb.ca","Latitude":49.913440499999993,"Longitude":-97.06478436603102},"geometry":{"x":-10805202.3696,"y":6431298.7334000021}},{"attributes":{"OBJECTID":3,"OBJECTID_1":3,"Hospital_Name":"Grace Hospital","Address":"300 Booth Drive","City":"Winnipeg","Province":"MB","Postal_Code":"R3J 3M7","Phone":"204-837-0111","Website":"https://gracehospital.ca","Latitude":49.882321899999994,"Longitude":-97.277459163973191},"geometry":{"x":-10828877.219799999,"y":6425920.9540000036}},{"attributes":{"OBJECTID":4,"OBJECTID_1":4,"Hospital_Name":"Seven Oaks General Hospital","Address":"2300 McPhillips Street","City":"Winnipeg","Province":"MB","Postal_Code":"R2V 3M3","Phone":"204-632-7133","Website":"https://sogh.ca","Latitude":49.955297999999999,"Longitude":-97.148896800493944},"geometry":{"x":-10814565.722899999,"y":6438537.8381000012}},{"attributes":{"OBJECTID":5,"OBJECTID_1":5,"Hospital_Name":"Victoria Hospital","Address":"2340 Pembina Highway","City":"Winnipeg","Province":"MB","Postal_Code":"R3T 2E8","Phone":"204-269-3570","Website":"https://vgh.mb.ca","Latitude":49.806446600000001,"Longitude":-97.153134899999998},"geometry":{"x":-10815037.505999999,"y":6412823.0322000012}}]}
